[
  {
    "id": "pedley-s-pony-to-paddock",
    "name": "Pedley's Pony to Paddock",
    "address": "Boghall Farm, Chance Hall Lane, Moreton cum Alcumlow, Cheshire, CW12 4TL",
    "postcode": "CW12 4TL",
    "city": "Moreton cum Alcumlow",
    "county": "Cheshire",
    "lat": null,
    "lng": null
  },
  {
    "id": "chestnut-mill-limited",
    "name": "Chestnut Mill Limited",
    "address": "Unit 160, 8 The Bridge, Chippenham, Wiltshire, SN15 1FY",
    "postcode": "SN15 1FY",
    "city": "Chippenham",
    "county": "Wiltshire",
    "lat": null,
    "lng": null
  },
  {
    "id": "smylee-pets",
    "name": "Smylee Pets",
    "address": "Haugh Corner Farm, Heath Road, Banham, Norfolk, NR16 2DG",
    "postcode": "NR16 2DG",
    "city": "Banham",
    "county": "Norfolk",
    "lat": null,
    "lng": null
  },
  {
    "id": "wacky-pets",
    "name": "Wacky Pets",
    "address": "Avondale, Ladgate Lane, Middlesbrough, North Yorkshire, TS4 3SF",
    "postcode": "TS4 3SF",
    "city": "Middlesbrough",
    "county": "North Yorkshire",
    "lat": null,
    "lng": null
  },
  {
    "id": "oakleigh-feed-barn",
    "name": "Oakleigh Feed Barn",
    "address": "Oakleigh Feed Barn, Rochester, Kent, ME3 7HH",
    "postcode": "ME3 7HH",
    "city": "Rochester",
    "county": "Kent",
    "lat": null,
    "lng": null
  },
  {
    "id": "chandlers-farm-equipment-ltd",
    "name": "Chandlers (Farm Equipment) Ltd",
    "address": "Chandlers (Farm Equipment) Ltd, Bedford Road, Shefford, Bedfordshire, SG17 5QB",
    "postcode": "SG17 5QB",
    "city": "Shefford",
    "county": "Bedfordshire",
    "lat": null,
    "lng": null
  },
  {
    "id": "sandwich-animal-feeds",
    "name": "Sandwich Animal Feeds",
    "address": "Sandwich Animal Feeds, Landgate Industrial Estate, Sandwich, Kent, CT13 9JA",
    "postcode": "CT13 9JA",
    "city": "Sandwich",
    "county": "Kent",
    "lat": null,
    "lng": null
  },
  {
    "id": "tamewater-farm-and-pet-supplies-ltd",
    "name": "Tamewater Farm & Pet Supplies Ltd",
    "address": "Tamewater Farm & Pet Supplies Ltd, Dobcross, Greater Manchester, OL3 5DB",
    "postcode": "OL3 5DB",
    "city": "Dobcross",
    "county": "Greater Manchester",
    "lat": null,
    "lng": null
  },
  {
    "id": "pets-and-country",
    "name": "Pets and Country",
    "address": "Pets and Country, Unit 5, Park 66 Industrial Estate, Chorley, Lancashire, PR6 7HX",
    "postcode": "PR6 7HX",
    "city": "Chorley",
    "county": "Lancashire",
    "lat": null,
    "lng": null
  },
  {
    "id": "petmeals",
    "name": "Petmeals",
    "address": "Petmeals, Jarrow, Tyne and Wear, NE35 9AU",
    "postcode": "NE35 9AU",
    "city": "Jarrow",
    "county": "Tyne and Wear",
    "lat": null,
    "lng": null
  },
  {
    "id": "hairy-cob-rider",
    "name": "Hairy Cob Rider",
    "address": "Hairy Cob Rider, Selby, North Yorkshire, YO8 8NJ",
    "postcode": "YO8 8NJ",
    "city": "Selby",
    "county": "North Yorkshire",
    "lat": null,
    "lng": null
  },
  {
    "id": "kelsall-hill-feeds",
    "name": "KELSALL HILL FEEDS",
    "address": "KELSALL HILL FEEDS, Tarporley, Cheshire, CW6 0SR",
    "postcode": "CW6 0SR",
    "city": "Tarporley",
    "county": "Cheshire",
    "lat": null,
    "lng": null
  },
  {
    "id": "greenlands-equestrian-centre",
    "name": "Greenlands Equestrian Centre",
    "address": "Greenlands Equestrian Centre, Carlisle, Cumbria, CA4 0RL",
    "postcode": "CA4 0RL",
    "city": "Carlisle",
    "county": "Cumbria",
    "lat": null,
    "lng": null
  },
  {
    "id": "a1-equestrian-and-pet-supplies",
    "name": "A1 Equestrian and Pet Supplies",
    "address": "A1 Equestrian and Pet Supplies, Knottingley, West Yorkshire, WF11 8DB",
    "postcode": "WF11 8DB",
    "city": "Knottingley",
    "county": "West Yorkshire",
    "lat": null,
    "lng": null
  },
  {
    "id": "anymal",
    "name": "Anymal",
    "address": "Anymal, Buckingham, Buckinghamshire, MK18 4AS",
    "postcode": "MK18 4AS",
    "city": "Buckingham",
    "county": "Buckinghamshire",
    "lat": null,
    "lng": null
  },
  {
    "id": "marsham-saddlery-and-country-clothing",
    "name": "Marsham Saddlery and Country Clothing",
    "address": "Marsham Saddlery and Country Clothing, Norwich, Norfolk, NR10 5QG",
    "postcode": "NR10 5QG",
    "city": "Norwich",
    "county": "Norfolk",
    "lat": null,
    "lng": null
  },
  {
    "id": "hacketts-saddlery",
    "name": "Hacketts Saddlery",
    "address": "Hacketts Saddlery, Preston, Lancashire, PR4 3FZ",
    "postcode": "PR4 3FZ",
    "city": "Preston",
    "county": "Lancashire",
    "lat": null,
    "lng": null
  },
  {
    "id": "rufffs-pet-supplies",
    "name": "Rufffs Pet Supplies",
    "address": "Rufffs Pet Supplies, Canterbury, Kent, CT3 3AW",
    "postcode": "CT3 3AW",
    "city": "Canterbury",
    "county": "Kent",
    "lat": null,
    "lng": null
  },
  {
    "id": "hillheads-farm-equine",
    "name": "Hillheads Farm Equine",
    "address": "Hillheads Farm Equine, Whitley Bay, Tyne and Wear, NE27 0BQ",
    "postcode": "NE27 0BQ",
    "city": "Whitley Bay",
    "county": "Tyne and Wear",
    "lat": null,
    "lng": null
  },
  {
    "id": "equiwarehouse",
    "name": "Equiwarehouse",
    "address": "Equiwarehouse, Boston, Lincolnshire, PE20 2EU",
    "postcode": "PE20 2EU",
    "city": "Boston",
    "county": "Lincolnshire",
    "lat": null,
    "lng": null
  },
  {
    "id": "martin-pears-engineering-ltd-agricultural-supplies",
    "name": "Martin Pears Engineering Ltd Agricultural Supplies",
    "address": "Martin Pears Engineering Ltd Agricultural Supplies, Totnes, Devon, TQ9 7JE",
    "postcode": "TQ9 7JE",
    "city": "Totnes",
    "county": "Devon",
    "lat": null,
    "lng": null
  },
  {
    "id": "avalon-equine",
    "name": "Avalon Equine",
    "address": "Avalon Equine, Weymouth, Dorset, DT3 5BJ",
    "postcode": "DT3 5BJ",
    "city": "Weymouth",
    "county": "Dorset",
    "lat": null,
    "lng": null
  },
  {
    "id": "carrs-billington-agriculture-sales-ltd",
    "name": "Carrs Billington Agriculture (Sales) Ltd",
    "address": "Carrs Billington Agriculture (Sales) Ltd, Stranraer, Wigtownshire, DG9 7BZ",
    "postcode": "DG9 7BZ",
    "city": "Stranraer",
    "county": "Wigtownshire",
    "lat": null,
    "lng": null
  },
  {
    "id": "millbryhill-sutton-on-forest",
    "name": "Millbryhill Sutton-on-forest",
    "address": "Millbryhill Sutton-on-forest, York, North Yorkshire, YO61 1EH",
    "postcode": "YO61 1EH",
    "city": "York",
    "county": "North Yorkshire",
    "lat": null,
    "lng": null
  },
  {
    "id": "adele-equine-supplies",
    "name": "Adele Equine Supplies",
    "address": "Adele Equine Supplies, Swindon, Wiltshire, SN6 6JD",
    "postcode": "SN6 6JD",
    "city": "Swindon",
    "county": "Wiltshire",
    "lat": null,
    "lng": null
  },
  {
    "id": "bearts",
    "name": "Bearts",
    "address": "Bearts, Kings Lynn, Norfolk, PE34 3PD",
    "postcode": "PE34 3PD",
    "city": "Kings Lynn",
    "county": "Norfolk",
    "lat": null,
    "lng": null
  },
  {
    "id": "cotes",
    "name": "Cotes",
    "address": "Cotes, Ely, Cambridgeshire, CB7 5EP",
    "postcode": "CB7 5EP",
    "city": "Ely",
    "county": "Cambridgeshire",
    "lat": null,
    "lng": null
  },
  {
    "id": "hendry-equestrian-shop-ltd",
    "name": "Hendry Equestrian Shop Ltd",
    "address": "Hendry Equestrian Shop Ltd, Dunbar, East Lothian, EH42 1RH",
    "postcode": "EH42 1RH",
    "city": "Dunbar",
    "county": "East Lothian",
    "lat": null,
    "lng": null
  },
  {
    "id": "highland-industrial-supplies-ltd",
    "name": "Highland Industrial Supplies Ltd",
    "address": "Highland Industrial Supplies Ltd, Inverness, Highland, IV1 1SG",
    "postcode": "IV1 1SG",
    "city": "Inverness",
    "county": "Highland",
    "lat": null,
    "lng": null
  },
  {
    "id": "hilltop-animal-and-farm-supplies",
    "name": "Hilltop Animal & Farm Supplies",
    "address": "Hilltop Animal & Farm Supplies, Bathgate, West Lothian, EH48 2HL",
    "postcode": "EH48 2HL",
    "city": "Bathgate",
    "county": "West Lothian",
    "lat": null,
    "lng": null
  },
  {
    "id": "highland-pet-and-equine-supplies-ltd",
    "name": "Highland Pet & Equine Supplies Ltd",
    "address": "Highland Pet & Equine Supplies Ltd, Beauly, Highland, IV6 7UA",
    "postcode": "IV6 7UA",
    "city": "Beauly",
    "county": "Highland",
    "lat": null,
    "lng": null
  },
  {
    "id": "jetset-saddlery-and-countrywear",
    "name": "Jetset Saddlery & Countrywear",
    "address": "Jetset Saddlery & Countrywear, Kilmarnock, Ayrshire, KA2 9BT",
    "postcode": "KA2 9BT",
    "city": "Kilmarnock",
    "county": "Ayrshire",
    "lat": null,
    "lng": null
  },
  {
    "id": "hs-supplies",
    "name": "HS Supplies",
    "address": "HS Supplies, Stornoway, Isle of Lewis, HS1 2RD",
    "postcode": "HS1 2RD",
    "city": "Stornoway",
    "county": "Isle of Lewis",
    "lat": null,
    "lng": null
  },
  {
    "id": "laurencekirk-pet-supplies",
    "name": "Laurencekirk Pet Supplies",
    "address": "Laurencekirk Pet Supplies, Laurencekirk, Aberdeenshire, AB30 1AG",
    "postcode": "AB30 1AG",
    "city": "Laurencekirk",
    "county": "Aberdeenshire",
    "lat": null,
    "lng": null
  },
  {
    "id": "lawrie-and-symington-country-supplies",
    "name": "Lawrie & Symington Country Supplies",
    "address": "Lawrie & Symington Country Supplies, Lanark, South Lanarkshire, ML11 9AX",
    "postcode": "ML11 9AX",
    "city": "Lanark",
    "county": "South Lanarkshire",
    "lat": null,
    "lng": null
  },
  {
    "id": "loanhead-equestrian-centre",
    "name": "Loanhead Equestrian Centre",
    "address": "Loanhead Equestrian Centre, Aberdeen, Aberdeenshire, AB23 8YS",
    "postcode": "AB23 8YS",
    "city": "Aberdeen",
    "county": "Aberdeenshire",
    "lat": null,
    "lng": null
  },
  {
    "id": "longleys-country-store",
    "name": "Longleys Country Store",
    "address": "Longleys Country Store, Peterhead, Aberdeenshire, AB42 4NG",
    "postcode": "AB42 4NG",
    "city": "Peterhead",
    "county": "Aberdeenshire",
    "lat": null,
    "lng": null
  },
  {
    "id": "mccaskie-farm-supplies",
    "name": "McCaskie Farm Supplies",
    "address": "McCaskie Farm Supplies, Stirling, Stirlingshire, FK7 7UU",
    "postcode": "FK7 7UU",
    "city": "Stirling",
    "county": "Stirlingshire",
    "lat": null,
    "lng": null
  },
  {
    "id": "js-main-and-sons-ltd",
    "name": "JS Main & Sons Ltd",
    "address": "JS Main & Sons Ltd, Haddington, East Lothian, EH41 3ET",
    "postcode": "EH41 3ET",
    "city": "Haddington",
    "county": "East Lothian",
    "lat": null,
    "lng": null
  },
  {
    "id": "mccaskie-farm-supplies",
    "name": "McCaskie Farm Supplies",
    "address": "McCaskie Farm Supplies, Ayr, Ayrshire, KA6 5JW",
    "postcode": "KA6 5JW",
    "city": "Ayr",
    "county": "Ayrshire",
    "lat": null,
    "lng": null
  },
  {
    "id": "mccash-s-country-store",
    "name": "McCash's Country Store",
    "address": "McCash's Country Store, Perth, Perthshire, PH1 2AS",
    "postcode": "PH1 2AS",
    "city": "Perth",
    "county": "Perthshire",
    "lat": null,
    "lng": null
  },
  {
    "id": "mccaskie-farm-supplies",
    "name": "McCaskie Farm Supplies",
    "address": "McCaskie Farm Supplies, Larkhall, South Lanarkshire, ML11 7SR",
    "postcode": "ML11 7SR",
    "city": "Larkhall",
    "county": "South Lanarkshire",
    "lat": null,
    "lng": null
  },
  {
    "id": "mjr-equine-supplies",
    "name": "MJR Equine Supplies",
    "address": "MJR Equine Supplies, Glasgow, East Dunbartonshire, G66 1SS",
    "postcode": "G66 1SS",
    "city": "Glasgow",
    "county": "East Dunbartonshire",
    "lat": null,
    "lng": null
  },
  {
    "id": "merkland-farm-feeds",
    "name": "Merkland Farm Feeds",
    "address": "Merkland Farm Feeds, Maybole, Ayrshire, KA19 8HP",
    "postcode": "KA19 8HP",
    "city": "Maybole",
    "county": "Ayrshire",
    "lat": null,
    "lng": null
  },
  {
    "id": "muck-off-ltd",
    "name": "Muck Off Ltd",
    "address": "Muck Off Ltd, Westhill, Aberdeenshire, AB32 7BB",
    "postcode": "AB32 7BB",
    "city": "Westhill",
    "county": "Aberdeenshire",
    "lat": null,
    "lng": null
  },
  {
    "id": "murray-farmcare",
    "name": "Murray Farmcare",
    "address": "Murray Farmcare, Dumfries, Dumfries and Galloway, DG2 0LL",
    "postcode": "DG2 0LL",
    "city": "Dumfries",
    "county": "Dumfries and Galloway",
    "lat": null,
    "lng": null
  },
  {
    "id": "firwood-pet-supply",
    "name": "Firwood Pet Supply",
    "address": "Firwood Pet Supply, Invergordon, Ross-Shire, IV18 0AS",
    "postcode": "IV18 0AS",
    "city": "Invergordon",
    "county": "Ross-Shire",
    "lat": null,
    "lng": null
  },
  {
    "id": "cr-ogilvie-and-sons",
    "name": "CR Ogilvie & Sons",
    "address": "CR Ogilvie & Sons, Prestonpans, East Lothian, EH32 0PJ",
    "postcode": "EH32 0PJ",
    "city": "Prestonpans",
    "county": "East Lothian",
    "lat": null,
    "lng": null
  }
]